,name,latitude,longitude
0,Acamarachi,-23.292,-67.618
1,Acatenango,14.501,-90.876
2,Acigol-Nevsehir,38.57,34.52
3,Acotango,-18.37,-69.05
4,Adagdak,51.988,-176.592
5,Adams,46.206,-121.49
6,Adams Seamount,-25.37,-129.27
7,Adwa,10.07,40.84
8,Agua,14.465,-90.743
9,Agua de Pau,37.77,-25.47
10,Aguas Delgadas,-24.45,-68.4
11,Aguilera,-50.33,-73.75
12,Agung,-8.342,115.508
13,Aira,31.593000000000004,130.657
14,Akademia Nauk,53.98,159.45
15,Akhtang,55.43,158.65
16,Akutan,54.13399999999999,-165.986
17,Al Harrah,31.08,38.42
18,Alaid,50.861,155.565
19,Alayta,12.888,40.573
20,Alban Hills,41.73,12.7
21,Alcedo,-0.43,-91.12
22,Ale Bagu,13.52,40.63
23,Alexander Selkirk,-33.763000000000005,-80.811
24,Alid,14.88,39.92
25,Aliso,-0.53,-78.0
26,Alligator Lake,60.42,-135.42
27,Almolonga,14.797,-91.519
28,Alney-Chashakondzha,56.7,159.65
29,Alngey,57.7,160.4
30,Alu-Dalafilla,13.793,40.55
31,Alutu,7.77,38.78
32,Amak,55.424,-163.149
33,Amasing,-0.53,127.48
34,Ambalatungan Group,17.32,121.1
35,Ambitle,-4.08,153.65
36,Ambre-Bobaomby,-12.6,49.15
37,Ambrym,-16.25,168.12
38,Amiata,42.9,11.63
39,Amorong,15.828,120.805
40,Amsterdam Island,-37.83,77.52
41,Amukta,52.5,-171.252
42,Anaun,56.32,158.83
43,Andahua-Orcopampa,-15.42,-72.33
44,Andrus,-75.8,-132.33
45,Aneityum,-20.2,169.78
46,Aniakchak,56.88,-158.17
47,Ankaizina Field,-14.3,48.67
48,Ankaratra Field,-19.4,47.2
49,Antillanca Group,-40.771,-72.153
50,Antisana,-0.481,-78.141
51,Antofagasta Volcanic Field,-26.12,-67.4
52,Antofalla,-25.55,-67.92
53,Antuco,-37.406,-71.34899999999998
54,Aoba,-15.4,167.83
55,Apagado,-22.05,-67.97
56,Apagado,-41.88,-72.58
57,Apaneca Range,13.890999999999998,-89.786
58,Apastepeque Field,13.72,-88.77
59,Apo,6.989,125.269
60,Apoyeque,12.242,-86.34200000000001
61,Aracar,-24.29,-67.783
62,Aragats,40.53,44.2
63,Ararat,39.7,44.3
64,Arayat,15.2,120.742
65,Ardoukoba,11.58,42.47
66,Arenal,10.463,-84.70299999999997
67,Arenales,-47.2,-47.2
68,Arintica,-18.75,-69.05
69,Arshan,47.5,120.7
70,Asacha,52.355,157.827
71,Asavyo,13.07,41.6
72,Ascension,-7.95,-14.37
73,Askja,65.03,-16.75
74,Assab Volcanic Field,12.95,42.43
75,Atacazo,-0.353,-78.617
76,Atakor Volcanic Field,23.33,5.83
77,Atitlán,14.583,-91.186
78,Atka,52.332,-174.137
79,Atlin Volcanic Field,59.68,-133.32
80,Auca Mahuida Volcanic Field,-37.738,-68.92399999999999
81,Aucanquilcha,-21.22,-68.47
82,Auckland Field,-36.9,174.87
83,Augustine,59.363,-153.43
84,Avachinsky,53.256,158.836
85,Axial Seamount,45.95,-130.0
86,Ayelu,10.082,40.702
87,Azas Plateau,52.52,98.6
88,Azufral,1.08,-77.68
89,Babuyan Claro,19.523,121.94
90,Bachelor,43.979,-121.688
91,Bagana,-6.1370000000000005,155.196
92,Bakening,53.905,158.07
93,Baker,48.777,-121.813
94,Balatukan,8.77,124.98
95,Balbi,-5.92,154.98
96,Baluan,-2.57,147.28
97,Balut,5.4,125.375
98,Bam,-3.613,144.81799999999996
99,Bamus,-5.2,151.23
100,Banahaw,14.07,121.48
101,Bárcena,19.3,-110.82
102,Bardarbunga,64.42,-17.33
103,Barkhatnaya Sopka,52.823,158.27
104,Barú,8.808,-82.54299999999998
105,Barva,10.135,-84.1
106,Bas Dong Nai,10.8,107.2
107,Bayuda Volcanic Field,18.33,32.75
108,Bazman,28.07,60.0
109,Behm Canal-Rudyerd Bay,55.32,-131.05
110,Belenkaya,51.75,157.27
111,Belirang-Beriti,-2.82,102.18
112,Belknap,44.285,-121.841
113,Bely,57.88,160.53
114,Berlin,-76.05,-136.0
115,Beru,8.95,39.75
116,Berutarubesan [Berutarube],44.462,146.93200000000004
117,Besar,-4.43,103.67
118,Bezymianny,55.972,160.595
119,Bibinoi,-0.77,127.72
120,Bilate River Field,7.07,38.1
121,Biliran,11.523,124.535
122,Billy Mitchell,-6.0920000000000005,155.225
123,Bir Borhut,15.55,50.63
124,Bishoftu Volcanic Field,8.78,38.98
125,Biu Plateau,10.75,12.0
126,Biu Plateau,10.75,12.088
127,Black Butte Crater Lava Field,43.183,-114.352
128,Black Peak,56.552,-158.785
129,Black Rock Desert,38.97,-112.5
130,Black Rock Desert,38.97,-112.5
131,Bliznets,56.97,159.78
132,Bliznetsy,57.35,161.37
133,Blue Lake Crater,44.411,-121.774
134,Bobrof,51.91,-177.438
135,Bogoria,0.25,36.08
136,Bogoslof,53.93,-168.03
137,Bolshe-Bannaya,52.9,157.78
138,Bolshoi Payalpan,55.88,157.78
139,Bolshoi Semiachik,54.32,160.02
140,Bolshoi-Kekuknaysky,56.47,157.8
141,Boomerang Seamount,-37.721,77.825
142,Bora Ale,13.725,40.6
143,Bora-Bericcio,8.27,39.03
144,Borawli,11.63,41.45
145,Boset Bericha,8.558,39.475
146,Bouvet,-54.42,3.35
147,Brava,14.85,-24.72
148,Brennisteinsfjoll,63.92,-21.83
149,Bridge River Cones,50.8,-123.4
150,Bridgeman Island,-62.06100000000001,-56.93
151,Bristol Island,-59.063,-26.587
152,Brothers,-34.875,179.075
153,Buckle Island,-66.78,163.25
154,Bufumbira,-1.23,29.72
155,Bukit Daun,-3.38,102.37
156,Bukit Lumut Balai,-4.22,103.62
157,Buldir,52.35,175.922
158,Bulusan,12.77,124.05
159,Bunyaruguru,-0.2,30.08
160,Bur ni Telong,4.769,96.821
161,Bus-Obo,47.12,109.08
162,Butajiri-Silti Field,8.05,38.35
163,Buzzard Creek,64.07,-148.42
164,Cabalian,10.285,125.218
165,Caburgua-Huelemolle,-39.25,-71.75
166,Cagua,18.222,122.123
167,Caichinque,-23.949,-67.74
168,Calabozos,-35.558,-70.49600000000002
169,Calatrava Volcanic Field,38.87,4.02
170,Calbuco,-41.326,-72.61399999999998
171,Caldera del Atuel,-34.65,-70.05
172,Callaqui,-37.92,-71.45
173,Cameroon,4.203,9.17
174,Camiguin,9.203,124.673
175,Camiguin de Babuyanes,18.83,121.86
176,Campi Flegrei,40.827,14.139
177,Cañapa,-21.5,-68.12
178,Candlemas Island,-57.08,-26.67
179,Cápur,-24.02,-67.85
180,Caquena,-18.07,-69.22
181,Carlisle,52.894,-170.054
182,Carrán-Los Venados,-40.35,-72.07
183,Carrizozo,33.78,-105.93
184,Cay,-45.059,-72.984
185,Cayambe,0.029,-77.986
186,Cayley Volcanic Field,50.12,-123.28
187,Cayutué-La Viguería,-41.25,-72.27
188,Ceboruco,21.125,-104.508
189,"Cendres, Ile des",10.158,109.014
190,Central Island,3.5,36.042
191,Cereme,-6.892,108.4
192,Cerro Ascotán,-21.68,-68.12
193,Cerro Auquihuato,-15.07,-73.18
194,Cerro Azul,-0.92,-91.408
195,Cerro Azul,-35.653,-70.76100000000002
196,Cerro Bayo Gorbea,-25.414,-68.58800000000001
197,Cerro Blanco,-26.789,-67.765
198,Cerro Bravo,5.091,-75.293
199,Cerro Cariquima,-19.55,-68.68
200,Cerro Chascon,-21.88,-67.9
201,Cerro Cinotepeque,14.02,-89.25
202,Cerro Colorado,-26.18,-68.37
203,Cerro Copa,-20.63,-68.45
204,Cerro de la Niebla,-25.25,-68.63
205,Cerro de Río Negro,-23.398000000000003,-67.582
206,Cerro del Azufre,-21.787,-68.237
207,Cerro del Leon,-22.142,-68.108
208,Cerro el Ciguatepe,12.53,-86.14200000000002
209,Cerro Galán,-25.93,-66.92
210,Cerro Hudson,-45.9,-72.97
211,Cerro Maichín,-39.35,-71.55
212,Cerro Moiro,-21.68,-67.47
213,Cerro Napa,-20.52,-68.68
214,Cerro Negro,12.505999999999998,-86.70200000000001
215,Cerro Nevado,-35.58,-68.48899999999999
216,Cerro Nicholson,-16.261,-71.75399999999998
217,Cerro Overo,-23.52,-67.67
218,Cerro Pantojo,-40.768,-71.943
219,Cerro Prieto,32.418,115.305
220,Cerro Pucara,-16.236,-69.471
221,Cerro San Agustín,-21.25,-67.75
222,Cerro Santiago,14.33,-89.87
223,Cerro Singüil,14.05,-89.65
224,Cerro Tatajachura,-19.5,-69.12
225,Cerro Trautrén,-39.17,-71.4
226,Cerro Tujle,-23.83,-67.95
227,Cerro Zapaleri,-22.82,-67.18
228,Cerros de Tocorpuri,-22.439,-67.888
229,Cerros Purupuruni,-17.32,-69.9
230,Ch&#039;uga-ryrong,38.33,127.33
231,Chacana,-0.375,-78.25
232,Chachadake [Tiatia],44.353,146.252
233,Chachimbiro,0.468,-78.28699999999998
234,Chagulak,52.577,-171.13
235,Chaine des Puys,45.775,2.97
236,Chaiten,-42.833,-72.646
237,Changbaishan,41.98,128.08
238,Cherny,56.82,159.67
239,Cherpuk Group,55.55,157.47
240,Chichinautzin,19.08,-99.13
241,Chiginagak,57.135,-156.99
242,Chikurachki,50.324,155.461
243,Chiles-Cerro Negro,0.8170000000000001,-77.938
244,Chiliques,-23.58,-67.7
245,Chimborazo,-1.464,-78.815
246,Chinameca,13.478,-88.33
247,Chingo,14.12,-89.73
248,Chiquimula Volcanic Field,14.83,-89.55
249,Chiracha,6.7120000000000015,38.085
250,Chirinkotan,48.98,153.48
251,Chirippusan [Chirip],45.338,147.92
252,Chirpoi,46.525,150.875
253,Churchill,61.38,-141.75
254,Chyulu Hills,2.68,37.88
255,Cinnamon Butte,43.24100000000001,-122.108
256,Clark,-36.446,177.83900000000003
257,Clear Lake,38.97,-122.77
258,Cleft Segment,44.83,-130.3
259,Cleveland,52.825,-169.94400000000005
260,Coatepeque Caldera,13.87,-89.55
261,CoAxial Segment,46.52,-129.58
262,Cobb Segment,46.88,-129.33
263,Cochiquito Volcanic Group,-36.739,-69.834
264,Cofre de Perote,19.492,-97.15
265,Colachi,-23.236,-67.645
266,Colima,19.514,-103.62
267,Comondú-La Purísima,26.0,111.92
268,Concepción,11.538,-85.62200000000001
269,Copahue,-37.856,-71.183
270,Copiapó,-27.3,-69.13
271,Corbetti,7.18,38.43
272,Corcovado,-43.18899999999999,-72.794
273,Cordón de Puntas Negras,-23.743,-67.53399999999999
274,Cordon del Azufre,-25.336,-68.521
275,Coronado,29.08,-113.513
276,Coropuna,-15.52,-72.65
277,Corvo,39.699,-31.111
278,Cosigüina,12.98,-87.57
279,Coso Volcanic Field,36.03,-117.82
280,Cotopaxi,-0.677,-78.436
281,Crater Basalt Volcanic Field,-42.018,-70.194
282,Crater Lake,42.93,-122.12
283,Craters of the Moon,43.42,-113.5
284,Crow Lagoon,54.7,-130.23
285,Cu-Lao Re Group,15.38,109.12
286,Cuernos de Negros,9.25,123.17
287,Cuernos del Diablo,-41.363,-72.005
288,Cuicocha,0.308,-78.36399999999998
289,Cuilapa-Barbarena,14.33,-90.4
290,Cumbal,0.95,-77.87
291,Curtis Island,-30.542,-178.56099999999995
292,Curutú,-23.17,-67.07
293,Dabbahu,12.595,40.48
294,Dabbayra,12.38,40.07
295,Dacht-i-Navar Group,33.95,67.92
296,Dama Ali,11.28,41.63
297,Damavand,35.951,52.109
298,Dana,55.64100000000001,-161.214
299,Dar-Alages,39.704,45.551
300,Dariganga Volcanic Field,45.33,114.0
301,Davidof,51.97,178.33
302,Davis Lake,43.57,-170.82
303,Deception Island,-63.00100000000001,-60.652
304,Dempo,-4.03,103.13
305,Denison,58.418,-154.44899999999996
306,Descabezado Grande,-35.58,-70.75
307,Deslinde,-22.27,-67.97
308,Devils Garden,43.512,-120.861
309,Diamond Craters,43.1,-118.75
310,Didicas,19.077,122.202
311,Dieng Volcanic Complex,-7.2,109.92
312,Diky Greben,51.452,156.97799999999995
313,Dofan,9.78,40.33
314,Domuyo,-36.63800000000001,-70.432
315,Don Joao de Castro Bank,38.23,-26.63
316,Doña Juana,1.5,-76.936
317,Dotsero,39.661,-107.035
318,Douglas,58.855,-153.542
319,Dubbi,13.579,41.809
320,Duncan Canal,56.5,-133.1
321,Durango Volcanic Field,24.15,104.45
322,Dutton,55.183,-162.276
323,Dzenzursky,53.637,158.922
324,East Blanco Depression,44.267,-129.879
325,East Gakkel Ridge at 85 E,85.60799999999998,85.25
326,East Zway,7.95,38.93
327,Easter Island,-27.15,-109.38
328,Ebeko,50.68600000000001,156.014
329,Edgecumbe,57.05,-135.75
330,Edziza,57.72,-130.63
331,Eggella,56.57,158.52
332,Ekarma,48.958,153.93
333,El Aguajito,27.554,-112.552
334,El Azufre,-25.37,-68.88
335,El Chichón,17.36,-93.228
336,El Cóndor,-26.632,-68.361
337,El Misti,-16.294,-71.40899999999998
338,El Negrillar,-24.18,-68.25
339,El Solo,-27.105,-68.71300000000001
340,El Tigre,13.47,-88.43
341,El Valle,8.58,-80.17
342,El Volcán,-22.33,-67.97
343,Elbrus,43.351000000000006,42.442
344,Elmenteita Badlands,-0.52,36.27
345,Elovsky,57.55,160.53
346,Emi Koussi,19.8,18.53
347,Emmons Lake,55.341,-162.07299999999995
348,Emuruangogolak,1.5,36.33
349,Endeavour Segment,47.95,-129.1
350,Erciyes Dagi,38.52,35.48
351,Erebus,-77.53,167.17
352,Erta Ale,13.6,40.67
353,Es Safa,33.25,37.07
354,Escala,-21.6,-66.88
355,Escanaba Segment,40.98,-127.5
356,Escorial,-25.083,-68.367
357,Esjufjoll,64.27,-16.65
358,Estelí,13.17,-86.4
359,Etna,37.734,15.004
360,Etorofu-Atosanupuri,44.808,147.131
361,Etorofu-Yakeyama,45.012,147.871
362,Evlanov Seamount,48.38399999999999,-35.132
363,Eyjafjallajökull,63.63,-19.62
364,Falso Azufre,-26.8,-68.37
365,Fayal,38.6,-28.73
366,Fedotych,57.13,160.4
367,Fentale,8.975,39.93
368,Fernandina,-0.37,-91.55
369,Fisher,54.65,-164.43
370,Flores,14.308,-89.992
371,Flores,39.462,-31.216
372,Fogo,14.95,-24.35
373,Fort Portal,0.7,30.25
374,Fort Selkirk,62.93,-137.38
375,Fourpeaked,58.77,-153.672
376,Fremrinamur,65.43,-16.65
377,Frosty,55.067,-162.835
378,Fuego,14.473,-90.88
379,Fueguino,-54.97,-70.262
380,Fuerteventura,28.358,-147.02
381,Furnas,37.77,-25.32
382,Fuss Peak,50.267,155.246
383,Gabillema,11.08,41.27
384,Gada Ale,13.975,40.408
385,Galeras,1.22,-77.37
386,Galunggung,-7.25,108.058
387,Gamalama Mount,0.8,127.33
388,Gamchen,54.974,160.703
389,Gareloi,51.79,-178.794
390,Garibaldi,49.85,-123.0
391,Garibaldi Lake,49.92,-123.03
392,Gedamsa,8.35,39.18
393,Gede-Pangrango,-6.77,106.965
394,Gemelos-Saladillo,-24.75,-66.17
395,Geodesistoy,56.33,158.67
396,Geureudong,4.813,96.82
397,Geysir,64.32,-20.3
398,Ghegam Ridge,40.275,44.75
399,Giggenbach,-30.036,-178.71200000000005
400,Glacier Peak,48.112,-121.113
401,Golan Heights,33.1,35.97
402,Golaya,52.26300000000001,157.787
403,Golden Trout Creek,36.358,-118.32
404,Gollu Dag,38.35,34.57
405,Gordon,62.13,-143.08
406,Gorely,52.559,158.03
407,Gorny Institute,57.33,160.2
408,Graciosa,39.02,-27.97
409,Gran Canaria,28.0,-15.58
410,Granada,11.92,-85.98
411,Great Sitkin,52.076,-176.13
412,Grensdalur,64.02,-21.17
413,Griggs,58.354,-155.092
414,Grimsnes,64.03,-20.87
415,Grimsvotn,64.416,-17.316
416,Groppo,11.73,40.25
417,Guadalupe,29.07,-118.28
418,Guagua Pichinca,-0.171,-78.598
419,Guallatiri,-18.42,-69.092
420,Guayaques,-22.895,-67.566
421,Guazapa,13.9,-89.12
422,Gufa,12.55,42.53
423,Guntur,-7.143,107.84
424,Hainan Dao,19.7,110.1
425,Haleakala,20.708,-156.25
426,Halla,33.361,126.53
427,Hanish,13.72,42.73
428,Harra Es-Sawad,13.58,46.12
429,Harra of Arhab,15.63,44.08
430,Harra of Bal Haf,14.05,48.33
431,Harras of Dhamar,14.57,44.67
432,Harrat al Birk,18.37,41.63
433,Harrat ar Rahah,27.8,36.17
434,Harrat Ash Shamah,37.583,1100.0
435,Harrat Ithnayn,26.58,40.2
436,Harrat Khaybar,25.0,39.92
437,Harrat Kishb,22.8,41.38
438,Harrat Lunayyir,25.17,37.75
439,Harrat Rahat,23.08,39.78
440,Harrat Uwayrid,27.08,37.25
441,Haruj,27.25,17.5
442,Hasan Dagi,38.13,34.17
443,Haut Dong Nai,11.6,108.2
444,Havre Seamount,-31.11,179.04
445,Hayes,61.64,-152.411
446,Hayli Gubbi,13.5,40.72
447,Healy,-35.004,178.97299999999996
448,Heard,-53.106,73.513
449,Heart Peaks,58.6,-131.97
450,Hécar,-23.23,-67.75
451,Hekla,63.98,-19.7
452,Helgrindur,64.87,-23.25
453,Hell&#039;s Half Acre,43.5,-112.45
454,Hengill,64.08,-21.32
455,Herbert,52.742,-170.111
456,Hertali,9.78,40.33
457,Hierro,27.73,-18.03
458,Hodson,-56.712,-27.176
459,Hofsjokull,64.78,-18.92
460,Homa Mountain,-0.38,34.5
461,Honggeertu,41.47,113.0
462,Hood,45.374,-121.695
463,Hoodoo Mountain,56.78,-131.28
464,Hornopirén,-41.874,-72.431
465,Hromundartindur,64.07300000000001,-21.202
466,Hualalai,19.692,-155.87
467,Huambo,-15.83,-72.13
468,Huambutillo-Rumicola,13.58,-71.72
469,Huanquihue Group,-39.887,-71.58
470,Huaynaputina,-16.608,70.85
471,Hudson Mountains,-74.33,-99.42
472,Huequi,-42.377,72.578
473,Hulubelu,-5.334,104.59
474,Hutapanjang,-2.33,101.6
475,Hveravellir,64.75,-19.98
476,Ichinsky,55.578,157.718
477,Igwisi Hills,-4.891,31.93
478,Iktunup,58.08,160.77
479,Ile aux Cochons,-46.1,50.23
480,Ile de l&#039;Est,-46.43,52.2
481,Ile de la Possession,-46.42,51.75
482,Iliamna,60.032,-153.09
483,Iliinsky,51.49800000000001,157.203
484,Illiniza,-0.659,-78.714
485,Ilopango,13.672,-89.053
486,Imbabura,0.258,-78.183
487,Imuruk Lake,65.6,-163.92
488,In Ezzane Volcanic Field,23.0,10.83
489,Inacalari,-21.981,-68.071
490,Incaguasi,-24.03,-67.53
491,Incapillo,-27.9,-68.8
492,Indian Heaven,45.93,-121.82
493,Infiernillo,-35.123000000000005,-69.9
494,Ingakslugwat Hills,61.43,-164.47
495,Inyo Craters,37.692,-119.02
496,Ipala,14.55,-89.63
497,Iraya,20.469,122.01
498,Irazú,9.979,-83.852
499,Iriga,13.457,123.457
500,Irruputuncu,-20.73,-68.55
501,Isanotski,54.765,-163.72299999999996
502,Isarog,13.658,123.38
503,Ischia,40.73,13.897
504,Iskut-Unuk River Cones,56.58,-130.55
505,Isla el Tigre,13.272,-87.641
506,Isla Isabel,21.848000000000006,-105.886
507,Isla San Luis,29.97,-114.4
508,Isla Tortuga,27.438,-111.881
509,Isla Zacate Grande,13.33,-87.63
510,Isluga,-19.15,-68.83
511,Itasy Volcanic Field,-19.0,46.77
512,Ivao Group,45.77,149.68
513,Ixtepeque,14.42,-89.68
514,Izalco,13.813,-89.633
515,Iztaccíhuatl,19.179,-98.642
516,Izumbwe-Mpoli,-8.976,33.38
517,Jabal ad Druze,32.658,36.425
518,Jabal el-Marha,15.245,44.236
519,Jabal Haylan,15.43,44.78
520,Jabal Yar,17.05,42.83
521,Jackson Segment,42.15,-127.05
522,Jalua,15.042,39.82
523,James Ross Island,-64.15,-57.75
524,Jan Mayen,71.08,-8.17
525,Jaraguay Volcanic Field,29.33,-114.5
526,Jatun Mundo Quri Warani,-19.78,-66.48
527,Jebel at Tair,15.55,41.83
528,Jebel Marra,12.95,24.27
529,Jebel Zubair Group,15.05,42.18
530,Jefferson,44.674,-121.8
531,Jingbo,44.08,128.83
532,Jocotitlán,19.73,-99.758
533,Jolo,6.013,121.057
534,Jom-Bolok,52.7,98.98
535,Jorcada,-22.08,-67.77
536,Jordan Craters,43.147,-117.46
537,Jumaytepeque,14.336,-90.269
538,Kaba,-3.52,102.62
539,Kagamil,60.974,-169.72
540,Kaguyak,58.608,-154.028
541,Kaikohe-Bay of Islands,-35.3,173.9
542,Kaileney,57.8,160.67
543,Kalatungan,7.95,124.8
544,Kambalny,51.306,156.875
545,Kamen,56.02,160.593
546,Kanaga,51.923,-177.168
547,Kanlaon,10.412,123.132
548,Karaca Dag,37.67,39.83
549,Karang,-6.27,106.042
550,Karapinar Field,37.67,33.65
551,Karisimbi,-1.506,29.45
552,Karpinsky Group,50.148,155.373
553,Karthala,-11.75,43.38
554,Karymsky,54.049,159.44299999999996
555,Kasatochi,52.177,-175.50799999999995
556,Katla,63.63,-19.05
557,Katmai,58.28,-154.963
558,Katunga,-0.471,30.191
559,Katwe-Kikorongo,-0.08,29.92
560,Kazbek,42.7,44.5
561,Kebeney,57.1,159.93
562,Kekurny,56.4,158.85
563,Kell,51.65,157.35
564,Keluo Group,49.37,125.92
565,Kembar,3.85,97.664
566,Kendang,-7.245,107.709
567,Kerguelen Islands,-49.58,69.5
568,Kerinci,-1.6969999999999998,101.264
569,Ketoi,47.35,152.475
570,Khangar,54.761,157.407
571,Khanuy Gol,48.67,102.75
572,Kharimkotan,49.12,154.50799999999995
573,Khodutka,52.062,157.711
574,Kialagvik,57.203,-156.745
575,Kikhpinych,54.489,160.251
576,Kilauea,19.421,-155.287
577,Kilimanjaro,3.07,37.35
578,Kinenin,57.35,160.97
579,Kiska,52.103,177.602
580,Kizimen,55.131,160.32
581,Klyuchevskoy,56.056,160.642
582,Kolbeinsey Ridge,66.67,-18.5
583,Kolokol Group,46.042,150.05
584,Komarov,55.033,160.725
585,Kone,8.8,39.692
586,Koniuji,52.22,-175.13
587,Kookooligit Mountains,63.6,-170.43
588,Korath Range,5.1,35.88
589,Korosi,0.77,36.12
590,Korovin,52.332,-174.137
591,Koryaksky,53.32100000000001,158.71200000000005
592,Kos,36.852,27.251
593,Koshelev,51.356,156.753
594,Kostakan,53.83,158.05
595,Kozyrevsky,55.58,158.38
596,Krafla,65.73,-16.78
597,Krainy,56.37,159.03
598,Krakatau,-6.102,105.423
599,Krasheninnikov,54.596,160.27
600,Kronotsky,54.753,160.533
601,Krysuvik,63.93,-22.1
602,Ksudach,51.844,157.572
603,Kukak,58.453,-154.355
604,Kula,38.58,28.52
605,Kulkev,56.37,158.37
606,Kunlun Volcanic Group,35.52,80.2
607,Kuntomintar,48.75,154.02
608,Kunyit,-2.274,101.483
609,Kupreanof,56.011,-159.797
610,Kurile Lake,51.45,15.12
611,Kurub,11.88,41.21
612,Kutum Volcanic Field,14.57,25.85
613,Kverkfjoll,64.65,-1.72
614,Kyatwa,0.45,30.25
615,Kyejo,-9.229,33.792
616,La Grille,-11.47,43.33
617,La Malinche,19.231,-98.032
618,La Negrillar,-24.319000000000006,-68.59
619,La Palma,28.57,-17.83
620,La Yeguada,8.47,-80.82
621,"La, Gloria",19.33,-97.25
622,Labo,14.02,122.792
623,Laco,-23.8,-67.5
624,Laguna Aramuaca,12.428,-88.105
625,Laguna Blanca,-39.02,-70.37
626,Laguna Caldera,14.42,121.27
627,Laguna del Maule,-36.058,-70.492
628,Laguna Jayu Khota,-19.463,-67.432
629,Laguna Mariñaqui,-38.255,-71.167
630,Laguna Verde,-23.252,-67.71
631,Lake Yojoa,14.98,-87.98
632,Langjokull,64.85,-19.7
633,Lanín,-39.637,-71.502
634,Lanzarote,29.03,-13.63
635,Larancagua,-18.02,-69.08
636,Lardello,43.25,10.87
637,Larderello,43.25,10.87
638,Las Cumbres,19.15,-97.27
639,Las Lajas,12.3,-85.73
640,Las Pilas,12.495,-86.68799999999997
641,Lascar,-23.37,-67.73
642,Lassen Volcanic Center,40.492,-121.508
643,Lastarria,-25.168000000000006,-68.507
644,Latukan,7.65,124.45
645,Lautaro,-49.02,-73.55
646,Lavic Lake,34.75,-116.625
647,Leizhou Bandao,20.78,110.17
648,Lejía,-23.55,-67.77
649,Leonard Range,7.3820000000000014,126.047
650,Leskov Island,-56.65600000000001,-28.14
651,Lettunup,58.4,58.4
652,Leutongey,57.3,159.83
653,Level Mountain,58.42,-131.35
654,Lexone,-17.87,-69.48
655,Liamuiga,17.37,-62.8
656,Licancabur,-22.83,-67.88
657,Licto,-1.78,-78.613
658,Linzor,-22.18,-67.95
659,Lipari,38.48,14.95
660,Little Sitkin,51.95,178.543
661,Ljosufjoll,64.87,-22.23
662,Llaima,-38.692,-71.729
663,Llancanelo Volcanic Field,-35.75,-69.25
664,Llullaillaco,-24.72,-68.53
665,Loihi,18.92,-155.27
666,Lokon-Empung,1.358,124.792
667,Lomas Blancas,-36.286,-71.009
668,Long Valley,37.7,-118.87
669,Longgang Group,42.33,126.5
670,Longonot,-0.914,36.446
671,Lonquimay,-38.379,-71.586
672,Los Atlixcos,19.809,-96.526
673,Los Azufres,19.85,-100.63
674,Los Humeros,19.68,-97.45
675,Los Patos,-27.27,-69.0
676,Losloyo,-23.13,-67.37
677,Lower Chindwin,22.28,95.1
678,Lubukraya,1.4780000000000002,99.209
679,Ma Alalta,13.013,40.185
680,Macá,-45.1,-73.17
681,Macauley,-30.2,-178.47
682,Macdonald,-28.98,-140.25
683,Machín,4.487,-75.389
684,Madeira,32.73,-16.97
685,Mageik,58.195,-155.253
686,Mahagnao,10.882,124.888
687,Maipo,-34.164,-69.832
688,Makaturing,7.647,124.32
689,Makushin,53.89100000000001,-166.923
690,Malinao,13.416,123.608
691,Malindang,8.22,123.63
692,Malindig,13.24,122.018
693,Malintang,0.47,99.67
694,Maly Payalpan,55.82,157.98
695,Maly Semyachik,54.135,159.674
696,Mammoth Mountain,37.631,-119.032
697,Manda Gargori,11.75,41.48
698,Manda Hararo,12.17,40.82
699,Manda-Inakir,12.38,42.2
700,Mandalagan,10.65,123.25
701,Manzaz Volcanic Field,23.92,5.83
702,Marapi,-0.381,100.473
703,Marion Island,-46.9,37.75
704,Mariveles,14.52,120.47
705,Markagunt Plateau,37.58,-122.67
706,Maroa,-38.42,176.33
707,Marsabit,2.32,37.97
708,Martin,58.172,-155.361
709,Masaraga,13.32,123.6
710,Masaya,11.984000000000002,-86.161
711,Mascota Volcanic Field,20.62,-104.83
712,Mashkovtsev,51.1,156.72
713,Mat Ala,13.106,41.161
714,Matutum,6.37,125.07
715,Mauna Kea,19.82,-155.47
716,Mauna Loa,19.475,-155.608
717,Mayon,13.257,123.685
718,Mayor Island,-37.28,176.25
719,Mayotte Island,-12.83,45.17
720,McDonald Islands,-53.03,72.6
721,Meager,50.63,-1235.0
722,Medicine Lake,41.611,-121.554
723,Mega Basalt Field,4.08,37.42
724,Mehetia,-17.874000000000006,-148.06799999999996
725,Meidob Volcanic Field,15.32,26.47
726,Melbourne,-74.35,149.7
727,Melimoyu,-44.08,-72.88
728,Melville,-62.02,-57.67
729,Menengai,-0.2,36.07
730,Mentolat,-44.7,-73.08
731,Meru,-3.25,36.75
732,Methana,37.615,23.336
733,Meullín,-45.22,-73.05
734,Mezhdusopochny,57.47,126.25
735,Michael,-57.787,-26.46
736,Michinmahuida,-42.799,-72.445
737,Michoacán-Guanajuato,19.85,-101.75
738,Middle Gobi,45.28,106.7
739,Milbanke Sound Group,52.5,-128.73
740,Milna,46.815,151.786
741,Milos,36.699,24.439
742,Miñiques,-23.82,-67.77
743,Miravalles,10.748,-85.15299999999998
744,Miscanti,-23.67,-67.72
745,Mocho-Choshuenco,-39.927,-72.027
746,Moekeshiwan [Lvinaya Past],44.608,146.994
747,Moffett,51.944,-176.747
748,Mojanda,0.13,-78.27
749,Mombacho,11.826,-85.96799999999998
750,Momotombo,12.422,-86.54
751,Monaco Bank,37.6,-25.88
752,Mono Craters,37.88,-119.0
753,Mono Lake Volcanic Field,38.0,-119.03
754,Monowai,-25.887,-177.188
755,Montagu Island,-58.42,-26.33
756,Monte Burney,-52.33,-73.4
757,Morne aux Diables,15.612,-61.43
758,Morne Diablotins,15.503,-61.397
759,Morne Plat Pays,15.255,-61.341
760,Morne Trois Pitons,15.37,-61.33
761,Morne Watt,15.307,-61.305
762,"Morning, Mount",-78.5,163.53
763,Moua Pihaa,-18.325,-148.525
764,Mousa Ali,12.47,42.4
765,Moutohora Island,-37.858,176.98
766,Moyorodake [Medvezhia],45.389,148.838
767,Moyuta,14.03,-90.1
768,Muhavura,-1.383,29.678
769,Musuan,7.877000000000002,125.068
770,Mutnovsky,52.449,158.196
771,Nabro,13.37,41.7
772,Namarunu,1.98,36.43
773,Naolinco Volcanic Field,19.67,-96.75
774,Natib,14.72,120.4
775,Nazko,52.9,-123.72
776,Nejapa-Miraflores,12.12,-86.32
777,Nemo Peak,49.57,154.808
778,Nemrut Dagi,38.654,42.229
779,Nevado Anallajsi,-17.92,-68.92
780,Nevado Chachani,-16.191,-71.53
781,Nevado de Incahuasi,-27.033,-68.296
782,Nevado de Longaví,-36.19300000000001,-71.161
783,Nevado de los Piuquenes,-33.52,-69.83
784,Nevado de Toluca,19.108,-99.758
785,Nevado del Huila,2.93,-76.03
786,Nevado del Ruiz,4.892,-75.324
787,Nevado del Sajama,-18.1,-68.88
788,Nevado del Tolima,4.658,-75.33
789,Nevado Queva,-24.309,-66.732
790,Nevados Casiri,-17.47,-69.813
791,Nevados de Caburgua,-39.17,-70.53
792,Nevados de Chillan,-36.863,-71.377
793,Nevados Firura,-15.23,-72.63
794,Nevados Ojos del Salado,-27.109,-68.541
795,Nevis Peak,17.15,-62.58
796,Newberry,43.722,-121.229
797,Newer Volcanic Province,-37.77,142.5
798,Ngaoundere Plateau,7.25,13.67
799,Ngozi,-8.988999999999997,33.554
800,Nightingale Island,-37.42,-12.48
801,Nishihitokappuyama,44.833,147.342
802,Nisyros,36.586,27.16
803,North Gorda Ridge Segment,42.67,-126.78
804,North Island,4.07,36.05
805,Northern EPR-Segment RO2,16.55,-105.32
806,Northern EPR-Segment RO3,15.83,-105.43
807,Northern Mendoza Volcanic Field,-34.67,-69.0
808,Nosy-Be,-13.32,48.48
809,Novarupta,58.27,-155.157
810,Nunivak Island,60.02,-166.33
811,Nyambeni Hills,0.23,37.87
812,Nyamuragira,-1.408,29.2
813,Nyiragongo,-1.52,29.25
814,Nylgimelkin,57.97,160.65
815,O&#039;a Caldera,7.47,38.58
816,Ocaña,-20.58,-68.45
817,Odamoisan [Tebenkov],45.026,147.922
818,Okataina,-38.12,176.5
819,Okmok,53.43,-168.13
820,Oku Volcanic Field,6.25,10.5
821,Ol Doinyo Eburru,-0.65,36.22
822,Ol Doinyo Lengai,-2.764,35.914
823,Ol Kokwe,0.62,36.075
824,Olca-Paruma,-20.939,-68.413
825,Olkaria,-0.904,36.292
826,Olkoviy Volcanic Group,52.02,157.53
827,Ollagüe,-21.3,-68.18
828,Olot Volcanic Field,42.17,2.53
829,Opala,52.543,157.339
830,Oraefajokull,64.0,-16.65
831,Orosí,10.98,-85.473
832,Osorno,-41.105,-72.49600000000002
833,Ostanets,52.146,157.322
834,Ostry,58.18,160.82
835,Otdelniy,52.22,157.428
836,Ozernoy,5.88,157.38
837,Pacaya,14.380999999999998,-90.601
838,Paco-Maniayao,9.593,125.52
839,Paka,0.92,36.18
840,Palena Volcanic Group,-43.78,-72.47
841,Pali-Aike Volcanic Field,-52.082,-69.69800000000001
842,Palinuro,39.48,14.83
843,Palomo,-34.608000000000004,-70.295
844,Pampa Luxsar,-20.85,-68.2
845,Panarea,38.63,15.07
846,Panay,13.723,120.893
847,Paniri,-22.059,-68.22800000000001
848,Pantelleria,36.77,12.02
849,Papandayan,-7.32,107.73
850,Papayo,19.308,-98.7
851,Parinacota,-18.166,-69.142
852,Parker,6.113,124.892
853,Patah,-4.27,103.3
854,Patilla Pata,-18.05,-69.03
855,Patoc,17.147000000000002,120.98
856,Patuha,-7.16,107.4
857,Paulet,-63.57899999999999,-55.78
858,Pavlof,55.417,-161.894
859,Pavlof Sister,55.457,-161.85399999999996
860,Payún Matrú,-36.422,-69.241
861,Peinado,-26.623,-68.116
862,Pelée,14.809,-61.165
863,Pendan,-2.82,102.02
864,Penguin Island,-62.1,-84.93
865,Perbakti-Gagak,-6.75,106.7
866,Petacas,1.666,-76.814
867,Peter I Island,-68.85,-90.58
868,Peuet Sague,4.914,96.329
869,Pico,38.47,-28.4
870,Pico de Orizaba,19.03,-97.27
871,Pico Fracture Zone,38.75,-38.08
872,Picos Volcanic System,37.78,-25.67
873,Piedra Parada,-26.4,-68.75
874,Piip,55.42,167.33
875,Pinacate,31.772,-113.498
876,Pinatubo,15.13,120.35
877,Pino Hachado,-38.679,-70.814
878,Piratkovsky,52.113,157.849
879,Piton de la Fournaise,-21.244,55.708
880,Planchón-Peteroa,-35.223,-70.568
881,Platanar,10.3,-84.366
882,"Pleiades, The",-72.67,159.5
883,Plosky,55.2,158.47
884,Plosky,57.83,160.25
885,Poás,10.2,-84.23299999999998
886,Pocdol Mountains,13.05,123.958
887,Pogranychny,56.85,159.8
888,Popa,20.92,95.25
889,Popocatépetl,19.023,-98.622
890,Poquis,-23.02,-67.05
891,Porak,40.028,45.74
892,Porquesa,-19.958,-68.73
893,Potor,-23.2,-67.67
894,Prestahnukur,64.6,-20.58
895,Prevo Peak,47.02,152.12
896,Prince Edward Island,-46.63,37.95
897,Protector Shoal,-56.014,-28.246
898,Puelche Volcanic Field,-35.78,-70.48
899,Pular,-24.188,-68.054
900,Pulau Weh,5.82,95.28
901,Pulosari,-6.3420000000000005,105.975
902,Pululagua,0.038,-78.46300000000002
903,Punta Púlpito,26.517,-111.444
904,Puntiagudo-Cordón Cenizos,-40.969,-72.264
905,Puracé,2.32,-76.4
906,Purico Complex,-23.0,-67.75
907,Putana,-22.557,-67.85300000000001
908,Puyehue - Cordon Caulle,-40.59,-72.117
909,Puyuhuapi,-44.3,-72.53
910,Qal&#039;eh Hasan Ali,29.4,57.57
911,Qualibou,13.83,-61.06
912,Quetena,-22.25,-67.42
913,Quetrupillan,-39.5,-71.7
914,Quezaltepeque,14.57,-89.45
915,"Quill, The",17.477999999999998,-62.96
916,Quilotoa,-0.85,-78.9
917,Quimsachata,-14.2,-71.33
918,Quinchilca,-39.68,-72.008
919,Ragang,7.7,124.5
920,Raikoke,48.292,153.25
921,Rainier,46.853,-121.76
922,Rajabasa,-5.78,105.625
923,Rakkibetsudake [Demon],45.5,148.85
924,Ranau,-4.83,103.92
925,Raoul Island,-29.27,-201.92
926,Rasshua,47.77,153.02
927,Raususan [Mendeleev],43.979,145.733
928,Recheschnoi,53.157,-168.53900000000004
929,Reclus,-50.964,-73.585
930,Redoubt,60.485,-152.74200000000005
931,Reporoa,-38.42,176.33
932,Resago,-36.45,-70.92
933,Reventador,-0.077,-77.656
934,Reykjanes,63.88,-22.5
935,Rincón de la Vieja,10.83,-85.324
936,Río Murta,-46.17,-72.708
937,Risco Plateado,-34.917,-69.98100000000001
938,"Ritmann, Mount",-73.45,165.5
939,Robinson Crusoe,-33.658,-78.85
940,Rocard,-17.662,-148.586
941,Rochaculla-Inca Camacha,-18.8,-68.3
942,Romanche Fracture Zone,-0.433,-19.596
943,Romanovka,55.65,158.8
944,Romeral,5.2029999999999985,-75.363
945,Rota,12.55,-86.75
946,Rotorua,-38.08,176.27
947,Roundtop,54.8,-163.589
948,Royal Society Range,-78.25,163.33
949,Ruapehu,-39.28,175.57
950,Rucharuyama,45.25,148.35
951,Rudakov,45.874,149.819
952,Rumble II West,-35.353,178.52700000000004
953,Rumble III,-35.745,178.47799999999995
954,Rumble IV,-36.13,178.05
955,Rumble V,-36.142,178.196
956,Rungwe,-9.135,33.67
957,Ruruidake [Smirnov],44.45399999999999,146.139
958,Saba,17.63,-63.23
959,Sabalan,38.268,47.835
960,Sabancaya,-15.787,-71.857
961,Sahand,37.75,46.43
962,Sairecábur,-22.72,-67.892
963,Sala y Gómez,-26.47,-105.47
964,Salak,-6.72,106.73
965,Salton Buttes,33.2,-115.62
966,Samsari Volcanic Center,41.542,43.7
967,San Borja Volcanic Field,28.5,-113.75
968,San Carlos,3.35,8.52
969,San Cristóbal,12.702,-87.00399999999998
970,San Diego,14.27,-89.48
971,San Félix,-26.294,-80.112
972,San Francisco,-26.9,-68.27
973,San Francisco Volcanic Field,35.347,-111.678
974,San Joaquin,3.35,8.63
975,San Jorge,38.65,-28.08
976,San José,-33.789,-69.895
977,San Martín,18.57,-95.2
978,San Miguel,13.434,-88.26899999999998
979,San Pablo Volcanic Field,14.12,121.3
980,San Pedro-Pellado,-35.98900000000001,-70.84899999999998
981,San Pedro-San Pablo,-21.888,-68.391
982,San Quintín Volcanic Field,30.468000000000004,-115.996
983,San Salvador,13.734000000000002,-89.294
984,San Vicente,13.595,-88.837
985,Sand Mountain Field,44.38,121.93
986,Sanford,62.22,-144.13
987,Sanganguey,21.45,-104.73
988,Sangay,-2.005,-78.34100000000002
989,Santa Ana,13.853,-89.63
990,Santa Isabel,3.58,8.75
991,Santa Isabel,4.8180000000000005,-75.365
992,Santa Maria,14.755999999999998,-91.552
993,Santo Tomas,14.71,-91.479
994,Santo Tomas,16.33,120.55
995,Santorini,36.404,25.396
996,Sao Vicente,16.85,-24.97
997,Sara Sara,-15.33,-73.45
998,Sarik-Gajah,0.08,100.2
999,Sarychev Peak,48.092,153.2
1000,Sashiusudake [Baransky],45.1,148.019
1001,Satah Mountain,52.47,-124.7
1002,Saunders,-57.8,-26.483
1003,Schmidt,54.92,160.63
1004,Seal Nunataks Group,-65.03,-60.05
1005,Sedankinsky,57.27,160.08
1006,Segererua Plateau,1.57,37.9
1007,Segererua Plateau,1.57,37.9
1008,Seguam,52.315,-172.51
1009,Segula,52.015,178.136
1010,Sekincau Belirang,-5.107,104.317
1011,Semisopochnoi,51.93,179.58
1012,Serdán-Oriental,19.27,-97.47
1013,Sergief,52.05,-174.95
1014,Sete Cidades,37.87,-25.78
1015,Seulawah Agam,5.448,95.658
1016,Severny,58.28,160.87
1017,Sharat Kovakab,36.53,40.85
1018,Shasta,41.409,-122.193
1019,Sheveluch,56.653,161.36
1020,Shirinki,50.2,154.98
1021,Shishaldin,54.756,-163.97
1022,Shisheika,57.15,161.08
1023,Shishel,57.45,160.37
1024,Sibualbuali,1.556,99.255
1025,Sierra la Primavera,20.62,-103.52
1026,Sierra Negra,-0.83,-91.17
1027,Sierra Nevada,-38.58,-71.58
1028,Sierra Nevada,-26.48,-68.58
1029,Sikhote-Alin,47.0,137.5
1030,Silali,1.15,36.23
1031,Silay,10.77,123.23
1032,Silver Lake,40.731,-121.841
1033,Silverthrone,51.43,-126.3
1034,Sinabung,3.17,98.392
1035,Sinarka,48.875,154.175
1036,Singkut,3.248,98.501
1037,Singu Plateau,22.7,95.98
1038,Siple,-73.43,-126.67
1039,Slamet,-7.242000000000001,109.208
1040,Snaefellsjokull,64.8,-23.78
1041,Snegovoy,58.2,160.97
1042,Snezhniy,58.02,160.8
1043,Snowy Mountain,58.33600000000001,-154.68200000000004
1044,Soche,0.552,-77.58
1045,Socompa,-24.396,-68.24600000000001
1046,Socorro,18.78,-110.95
1047,Soda Lakes,39.53,-118.87
1048,Soda Lakes,39.53,-118.87
1049,Sodore,8.43,39.35
1050,Solimana,15.4,-72.9
1051,Sollipulli,-38.97,-71.52
1052,Sordo Lucas,-34.986999999999995,-70.456
1053,Sorikmarapi,0.6859999999999999,99.539
1054,Sotará,2.108,-76.592
1055,Soufrière Guadeloupe,16.044,-61.664
1056,Soufrière Hills,16.72,-62.18
1057,Soufrière St. Vincent,13.33,-61.18
1058,South Island,2.63,36.6
1059,Southern Thule,-59.442,-27.225
1060,Spectrum Range,57043.0,-130.68
1061,Spokoiny,58.13,160.82
1062,Spurr,61.299,-152.251
1063,Srednii,47.6,140.92
1064,St. Catherine,12.15,-61.67
1065,St. Helens,46.2,-122.18
1066,St. Michael,63.45,-162.12
1067,St. Paul,-38.72,77.53
1068,St. Paul Island,57.18,-170.3
1069,Steamboat Springs,39.375,-119.72
1070,Stellar,58.43,-154.4
1071,Stepovak Bay 2,55.913,-160.041
1072,Stepovak Bay 3,55.929,-160.002
1073,Stepovak Bay 4,55.95399999999999,-159.797
1074,Stromboli,38.789,15.213
1075,Sturge Island,-67.4,164.83
1076,Suchitán,14.4,-89.78
1077,Sumaco,-0.5379999999999999,-77.626
1078,Sumbing,-2.414,101.728
1079,Sumbing,-7.383999999999999,110.07
1080,Sundoro,-7.3,109.992
1081,Sunequera,-21.98,-67.23
1082,Suoh,-5.25,104.27
1083,Suswa,-1.175,36.35
1084,SW Usangu Basin,-8.75,33.8
1085,Taal,14.002,120.993
1086,Taapaca,-18.1,-69.5
1087,Taburete,13.435,-88.53200000000002
1088,Tacaná,15.132,-92.109
1089,Tacora,-17.72,-69.77
1090,Taftan,28.6,61.13
1091,Tahalra Volcanic Field,22.67,5.0
1092,Tahual,14.43,-89.9
1093,Tajumulco,15.043,-91.903
1094,Takahe,-76.28,-112.08
1095,Takawangha,51.87300000000001,-178.00599999999997
1096,Talagabodas,-7.207999999999998,108.07
1097,Talakmau,0.079,99.98
1098,Talang,-0.978,100.679
1099,Tambo Quemado,-18.62,-68.75
1100,Tampomas,-6.77,107.95
1101,Tana,52.83,-169.77
1102,Tanaga,51.885,-178.146
1103,Tandikat-Singgalang,-0.39,100.331
1104,Tangaroa,-36.321,178.028
1105,Tangkubanparahu,-6.77,107.6
1106,Tao-Rusyr Caldera,49.35,154.7
1107,Taranaki [Egmont],-39.3,174.07
1108,Tarso Toh,21.33,16.33
1109,Tarso Tousside,21.03,16.45
1110,Tarso Voon,20.92,17.28
1111,Taryatu-Chulutu,48.17,99.7
1112,Tat Ali,13.284,41.063
1113,Tata Sabaya,-19.13,-68.53
1114,Taunshits,54.528,159.804
1115,Taupo,-38.82,176.0
1116,Teahitia,-17.564,-148.821
1117,Tecapa,13.494000000000002,-88.50200000000002
1118,Tecuamburro,14.156,-90.407
1119,Telica,12.602,-86.845
1120,Telomoyo,-7.37,110.4
1121,Tenduruk Dagi,39.356,43.874
1122,Tenerife,28.271,-16.641
1123,Tengchong,25.23,98.5
1124,Tenorio,10.673,-85.015
1125,Tepi,7.42,35.43
1126,Terceira,38.73,-27.32
1127,Terpuk,57.2,159.83
1128,The Barrier,2.32,36.57
1129,Theistareykjarbunga,65.88,-16.83
1130,Three Sisters,44.17,-121.77
1131,Thule Islands,-59.458,-27.186
1132,Tianshan Volcanic Group,42.5,82.5
1133,Ticsani,-16.755,-70.595
1134,Tilocalar,-23.97,-68.13
1135,Tin Zaouatene Volcanic Field,19.83,2.83
1136,Tindfjallajokull,63.78,-19.57
1137,Tinguiririca,-34.814,-70.352
1138,Tipas,-27.196,-68.561
1139,Titila,57.4,160.1
1140,Tjornes Fracture Zone,66.3,-17.1
1141,Tlevak Strait-Suemez Is.,55.25,-133.3
1142,Toba,2.58,98.83
1143,Tocomar,-24.2,-66.5
1144,Todra Volcanic Field,17.68,8.5
1145,Tolbachik,55.832,160.326
1146,Tolhuaca,-38.31,-71.645
1147,Tolimán,14.612,-91.189
1148,Tolmachev Dol,52.63,157.58
1149,Tomariyama [Golovnin],43.844,145.504
1150,Tombel Graben,4.75,9.67
1151,Toney Mountain,-75.8,-115.83
1152,Tongariro,-39.157,175.632
1153,Tor Zawar,30.479,67.492
1154,Torfajokull,63.92,-19.17
1155,Toroeng Prong,14.93,108.0
1156,Tosa Sucha,5.93,37.57
1157,Tralihue,-38.509,-70.898
1158,Tres Cruces,-27.08,-68.8
1159,Tres Vírgenes,27.47,-112.591
1160,Tri Sestry,45.93,149.92
1161,Trident,58.236,-155.1
1162,Trindade,-20.514,-29.331
1163,Tristan da Cunha,-37.092,-12.28
1164,Trolon,-37.738,-70.906
1165,Tromen,-37.144,-70.033
1166,Tronador,-41.157,-71.885
1167,Tseax River Cone,55.12,-128.9
1168,Tshibinda,-2.32,28.75
1169,Tskhouk-Karckar,39.73,46.02
1170,Tullu Moje,8.158,39.13
1171,Tumisa,-23.45,-67.82
1172,Tungnafellsjokull,64.73,-17.92
1173,Tungnafellsjokull,64.75,-17.916
1174,Tungurahua,-1.467,-78.442
1175,Tunkin Depression,51.5,102.5
1176,Tupungatito,-33.425,-69.797
1177,Tupungato,-33.359,-69.77
1178,Turrialba,10.025,-83.76700000000002
1179,Tutupaca,17.026,70.372
1180,Tuya Volcanic Field,59.37,-130.58
1181,Tuya Volcanic Field,59.37,-130.58
1182,Tuzgle,-24.05,-66.48
1183,Tuzovsky,57.32,159.97
1184,Ubehebe Craters,37.02,-117.45
1185,Ubinas,-16.355,-70.903
1186,Udina,55.755,160.52700000000004
1187,Udokan Plateau,56.28,117.77
1188,Ugashik-Peulik,57.75100000000001,-156.368
1189,Uinkaret Field,36.38,-133.13
1190,Uka,57.7,160.58
1191,Ukinrek Maars,57.832,-156.51
1192,Uksichan,56.08,158.38
1193,Uliaga,53.065,-169.77
1194,Ulreung,37.5,130.87
1195,Ungaran,-7.18,110.33
1196,Unnamed,57.87,-155.42
1197,Unnamed,36.67,37.0
1198,Unnamed,33.0,36.63
1199,Unnamed,5.62,38.95
1200,Unnamed,8.7,39.63
1201,Unnamed,39.38,44.988
1202,Unnamed,28.17,60.67
1203,Unnamed,8.07,39.07
1204,Unnamed,5.65,37.67
1205,Unnamed,45.022,147.019
1206,Unnamed,-76.83,163.0
1207,Unnamed,-73.45,164.58
1208,Unnamed,52.57,157.02
1209,Unnamed,10.73,-103.58
1210,Unnamed,9.83,-104.3
1211,Unnamed,52.92,158.52
1212,Unnamed,-8.27,-107.95
1213,Unnamed,52.88,158.3
1214,Unnamed,-25.078000000000007,-68.266
1215,Unnamed,56.82,158.95
1216,Unnamed,46.47,151.28
1217,Unnamed,48.08,153.33
1218,Unnamed,20.33,121.75
1219,Unnamed,-32.958,-5.22
1220,Unnamed,55.92,161.75
1221,Unnamed_ 222162,-8.624,33.583
1222,Uratman,47.12,152.25
1223,Ushishur,47.52,152.8
1224,Ushkovsky,56.113,160.509
1225,Usulután,13.419,-88.471
1226,Utila Island,16.12,-86.882
1227,Uturuncu,-22.27,-67.18
1228,Uzon,54.5,159.97
1229,Vakak Group,34.25,67.97
1230,Valles Caldera,35.87,-106.57
1231,Veer,53.75,158.45
1232,Veniaminof,56.17,-159.38
1233,Verkhovoy,56.52,159.53
1234,Vernadskii Ridge,50.55,155.97
1235,Vestmannaeyjar,63.43,-20.28
1236,Vesuvius,40.821,14.425999999999998
1237,Veteran,9.83,109.05
1238,Viedma,-49.358,-73.28
1239,Vilacollo,-18.241,-69.307
1240,Villarrica,-39.42,-71.93
1241,Vilyuchik,52.7,158.28
1242,Visoke,-1.4580000000000002,29.485
1243,Visokiy,52.43,157.93
1244,Vitim Plateau,53.7,113.3
1245,Volcán Azul,12.53,-83.87
1246,Volcán Tatio,-22.42,-68.02
1247,Voyampolsky,58.37,160.62
1248,Vsevidof,53.13,-168.69299999999996
1249,Vulcano,38.404,14.962
1250,Vulsini,42.6,11.93
1251,Vysoky,55.06399999999999,160.765
1252,Waesche,-77.17,-126.88
1253,Wapi Lava Field,42.88,-113.22
1254,Wayang-Windu,-7.212999999999999,107.637
1255,Wells Gray-Clearwater,52.33,-1230.57
1256,West Crater,45.88,-122.08
1257,West Eifel Volcanic Field,50.17,6.85
1258,West Valley Segment,48.78,-128.64
1259,Westdahl,54.518,-164.65
1260,Whangarei,-35.75,174.27
1261,White Island,-37.52,158.18
1262,Wrangell,62.0,-144.02
1263,Wright,-31.85,-179.18
1264,Wudalianchi,48.72,126.12
1265,Xianjindao,41.33,128.0
1266,Yali,36.671,27.14
1267,Yangudi,10.58,41.042
1268,Yantarni,57.019,-157.185
1269,Yanteles,43.497,72.81
1270,Yate,-41.755,-72.396
1271,Yavinsky,51.57,156.6
1272,Yellowstone,44.43,-110.67
1273,Young Island,-66.42,163.25
1274,Yucamane,-17.184,-70.196
1275,Yunaska,52.643,-170.62900000000005
1276,Zaozerny,56.88,159.95
1277,Zapatera,11.73,-85.82
1278,Zavaritsky,53.905,158.385
1279,Zavaritzki Caldera,46.925,151.95
1280,Zavodovski,-56.3,-27.57
1281,Zheltovsky,51.577,157.328
1282,Zhupanovsky,53.589,159.15
1283,Zimina,55.862,160.60299999999995
1284,Zitácuaro-Valle de Bravo,19.4,-100.25
1285,Zukur,14.02,42.75
1286,Zuni-Bandera,34.8,-108.0
